[{"html_attributions":[],"results":[{"business_status":"OPERATIONAL","formatted_address":"Urbanización Loma del Puerco, 11130 Urb. Novo Santi Petri, Cádiz, España","geometry":{"location":{"lat":36.3368441,"lng":-6.160205899999999},"viewport":{"northeast":{"lat":36.33847452989272,"lng":-6.158939220107278},"southwest":{"lat":36.33577487010727,"lng":-6.161638879892722}}},"icon":"https://maps.gstatic.com/mapfiles/place_api/icons/lodging-71.png","id":"1f6665f7e69fe72cff1017998a1c0b2b1925e231","name":"Hotel Riu Chiclana","opening_hours":{"open_now":true},"photos":[{"height":3744,"html_attributions":["<a href=\"https://maps.google.com/maps/contrib/100528254545218752262\">ClubHotel Riu Chiclana</a>"],"photo_reference":"CmRaAAAAQTW2gOTrKo-cOAcYUDQtIuAmPE1KQUpXc9VXUNZ2UNUaQXauywWp5drIh6ef0w_4zSL_sy7dECUZDHKliLALSPhvuRSmyuFONAVxLDdn0VSlXj0DptSHxl3PUqJT3uWzEhC3Djo_iBYv_XZSmfKgQe5TGhTa67jxINq6lGo-SKDttOsvDxoeEA","width":5616}],"place_id":"ChIJyW2y3kI2DA0R1r0s-bvxE74","plus_code":{"compound_code":"8RPQ+PW Urb. Novo Santi Petri","global_code":"8C8M8RPQ+PW"},"rating":4.5,"reference":"ChIJyW2y3kI2DA0R1r0s-bvxE74","types":["lodging","point_of_interest","establishment"],"user_ratings_total":3867}],"status":"OK"},{"html_attributions":[],"results":[{"business_status":"OPERATIONAL","formatted_address":"Carrer Maryland, s/n, 07871 Platja de Migjorn, Illes Balears, España","geometry":{"location":{"lat":38.6639342,"lng":1.5146684},"viewport":{"northeast":{"lat":38.66540547989272,"lng":1.515788429892722},"southwest":{"lat":38.66270582010728,"lng":1.513088770107278}}},"icon":"https://maps.gstatic.com/mapfiles/place_api/icons/lodging-71.png","id":"cecf69640a25d16b446e0fe8061875d30646145a","name":"Hotel Riu La Mola","photos":[{"height":3521,"html_attributions":["<a href=\"https://maps.google.com/maps/contrib/111229520963806597459\">Hotel Ríu la Mola</a>"],"photo_reference":"CmRaAAAA4w9BvMLM5udmqfSiGSrhKGxxH_1sNNpslzKgAoaPI1xOOjHjmDyzGJ02fk1amcZSDYPEHVfHELQRe62M8PYEyoO3IinvUvUihBhl0VNS7VqFr5CKIKeTz1bpW6bEXxhIEhAULrYIzK8y-ZG18386pT-YGhRgTDnw9MbKcgk2VJNEJqgZvIXZIw","width":5268}],"place_id":"ChIJVVVVVeFYmRIR5Iq5kmNNPy4","plus_code":{"compound_code":"MG77+HV Playa de Migjorn","global_code":"8FC3MG77+HV"},"rating":4.4,"reference":"ChIJVVVVVeFYmRIR5Iq5kmNNPy4","types":["lodging","point_of_interest","establishment"],"user_ratings_total":1004}],"status":"OK"},{"html_attributions":[],"results":[{"business_status":"OPERATIONAL","formatted_address":"Playa de Jandía, s/n, 35625 Morro Jable, Las Palmas, España","geometry":{"location":{"lat":28.0501232,"lng":-14.3490353},"viewport":{"northeast":{"lat":28.05167997989273,"lng":-14.34763117010728},"southwest":{"lat":28.04898032010728,"lng":-14.35033082989272}}},"icon":"https://maps.gstatic.com/mapfiles/place_api/icons/lodging-71.png","id":"8c4fc4fbf04f64799fa5de5efe01edf4dbad9491","name":"Hotel Riu Calypso","opening_hours":{"open_now":true},"photos":[{"height":656,"html_attributions":["<a href=\"https://maps.google.com/maps/contrib/118044914414117239018\">Hotel Calypso</a>"],"photo_reference":"CmRaAAAAk7Zj6MCCwzzOUeWF9JXhgg7TrxDeMz-i7zzNGD7mentk2XiJebPqe4Y8j3wvCAX4l5TetJeXVFw86OCRIzTsd8CIVhN8KJNuJLKjWcC3Vl5XJLAST_KOXAqX2u2dtOoIEhACFE37-VqkAN6VvQ4lLGVtGhS2AXyaqxkyjmOPBMGR4AMaW70ozg","width":1000}],"place_id":"ChIJfZQCdgl5RwwR1br4LGp3ZDM","plus_code":{"compound_code":"3M22+29 Morro Jable","global_code":"7CW73M22+29"},"rating":4.4,"reference":"ChIJfZQCdgl5RwwR1br4LGp3ZDM","types":["spa","lodging","point_of_interest","establishment"],"user_ratings_total":562}],"status":"OK"},{"html_attributions":[],"results":[{"business_status":"OPERATIONAL","formatted_address":"Av. Corralejo Grandes Playas, s/n, 35660 Corralejo - Fuerteventura, Las Palmas, España","geometry":{"location":{"lat":28.7086841,"lng":-13.839986},"viewport":{"northeast":{"lat":28.71005237989272,"lng":-13.83897767010728},"southwest":{"lat":28.70735272010728,"lng":-13.84167732989272}}},"icon":"https://maps.gstatic.com/mapfiles/place_api/icons/lodging-71.png","id":"186cf02953908b4f43462f2347365fe5c24d554d","name":"Hotel Riu Oliva Beach Resort","opening_hours":{"open_now":true},"photos":[{"height":2491,"html_attributions":["<a href=\"https://maps.google.com/maps/contrib/101578365623981000029\">Hotel Riu Oliva Beach Resort</a>"],"photo_reference":"CmRaAAAA8pxJH1Kwdl09OkQo90vkW80l0mOptJvUuq_yCoTqqJE9E7NWIiGOMhrFz29Lb3l3Oxz_-YFifQvpxomqAQHiO3DRGcw-ZEeOi9tFyRkqxfEa9AiQyTlUHVR7ApRu0m-0EhDDJ5fORqjisRPwpdN4Ab4mGhS9bSlQL-aYPDo3lvBvM3i3pq2EQw","width":3364}],"place_id":"ChIJPy1ElbY0RgwRAu7G5pGki-8","plus_code":{"compound_code":"P556+F2 La Oliva","global_code":"7CW8P556+F2"},"rating":4.2,"reference":"ChIJPy1ElbY0RgwRAu7G5pGki-8","types":["lodging","point_of_interest","establishment"],"user_ratings_total":3758}],"status":"OK"},{"html_attributions":[],"results":[{"business_status":"OPERATIONAL","formatted_address":"Playa de Jandía, 35625 Fuerteventura, Las Palmas, España","geometry":{"location":{"lat":28.0489389,"lng":-14.3458683},"viewport":{"northeast":{"lat":28.05028872989272,"lng":-14.34451847010728},"southwest":{"lat":28.04758907010728,"lng":-14.34721812989272}}},"icon":"https://maps.gstatic.com/mapfiles/place_api/icons/lodging-71.png","id":"25aa0dbfa4ecb0497e69a4667d96486505597403","name":"Hotel Riu Palace Jandia","opening_hours":{"open_now":true},"photos":[{"height":743,"html_attributions":["<a href=\"https://maps.google.com/maps/contrib/101210885777206767255\">Hotel Riu Palace Jandia</a>"],"photo_reference":"CmRaAAAA_Gf4VRqHG7RmtieBv2XUg7-Vj5zIqmHAq_DBRXX6LqTy83u6-bE-i-xJeD_rdTbKJpJJxxpHzkIAWmTMssIDN6OuPncAvMkZdcnpf37y0X-IUWHulopoEf6DWaKWwwa4EhD9WpSXcpkSeCr2J1PxLkIPGhRqVBlp2AdF2ceh2R_ZSzAZpT15LQ","width":1000}],"place_id":"ChIJo9Xr6gh5RwwRVaAmmuh4I4A","plus_code":{"compound_code":"2MX3+HM Morro Jable","global_code":"7CW72MX3+HM"},"rating":4.4,"reference":"ChIJo9Xr6gh5RwwRVaAmmuh4I4A","types":["spa","lodging","point_of_interest","establishment"],"user_ratings_total":524}],"status":"OK"},{"html_attributions":[],"results":[{"business_status":"OPERATIONAL","formatted_address":"Avenida Grandes Playas, s/n, 35660 Corralejo - Fuerteventura, Las Palmas, España","geometry":{"location":{"lat":28.7126162,"lng":-13.8385452},"viewport":{"northeast":{"lat":28.71402337989272,"lng":-13.83725622010728},"southwest":{"lat":28.71132372010728,"lng":-13.83995587989272}}},"icon":"https://maps.gstatic.com/mapfiles/place_api/icons/lodging-71.png","id":"1983ffc4049dfb7aae511ed96b7de9ce2b614aea","name":"Hotel Riu Palace Tres Islas","opening_hours":{"open_now":true},"photos":[{"height":724,"html_attributions":["<a href=\"https://maps.google.com/maps/contrib/114393393867284518003\">Hotel Riu Palace Tres Islas</a>"],"photo_reference":"CmRaAAAA2kofTrspA64mvLBXddhAyCy3ISCpcisFwj8jaihDLhnYZY9MqBc1kZOk-Xbf7oI0W7zUM7jLNl2Fz7P2cc9SOYIDifw2CybmFopu1eDGm1LKLuzS43K72hXoiRZWTzl2EhAVTeHOaZudQf86SavfbAQYGhTxzrfhumstVlCBp_Ffwmo0_Rwl1Q","width":1000}],"place_id":"ChIJKQmXrbA0RgwRhCaDQTW6ols","plus_code":{"compound_code":"P576+2H La Oliva","global_code":"7CW8P576+2H"},"rating":4.4,"reference":"ChIJKQmXrbA0RgwRhCaDQTW6ols","types":["spa","lodging","point_of_interest","establishment"],"user_ratings_total":1493}],"status":"OK"},{"html_attributions":[],"results":[{"business_status":"OPERATIONAL","formatted_address":"Av. de Tirajana, 30, 35100 San Bartolomé de Tirajana, Las Palmas, España","geometry":{"location":{"lat":27.7601842,"lng":-15.5781701},"viewport":{"northeast":{"lat":27.76162412989272,"lng":-15.57672812010728},"southwest":{"lat":27.75892447010728,"lng":-15.57942777989272}}},"icon":"https://maps.gstatic.com/mapfiles/place_api/icons/lodging-71.png","id":"37b4e6f70a5471feec89ec6bd809c4bfe85189c2","name":"Hotel Riu Don Miguel","opening_hours":{"open_now":true},"photos":[{"height":5412,"html_attributions":["<a href=\"https://maps.google.com/maps/contrib/117476823906302297930\">Hotel Riu Don Miguel</a>"],"photo_reference":"CmRaAAAA7dL9GwrqYaTo7HtJs_T-bZcgmrVVouS8LZuRQFvqsEyV5xEkT2voXeM77GctvQxGW29acVmTLK9OHCYvss8O0BK_SD6CqV788zsvcQmU2KNfqG8NZAUZpSFcuwh1BZ0UEhAw6KWOCITgEV8wGqdrNZ1QGhSi_sAAZ17zJaF5ByJVqCKRlZZ0aQ","width":7216}],"place_id":"ChIJp187PbtiPwwR-B0McuqZVzY","plus_code":{"compound_code":"QC6C+3P San Bartolomé de Tirajana","global_code":"7CV6QC6C+3P"},"rating":4.2,"reference":"ChIJp187PbtiPwwR-B0McuqZVzY","types":["lodging","point_of_interest","establishment"],"user_ratings_total":1339}],"status":"OK"},{"html_attributions":[],"results":[{"business_status":"OPERATIONAL","formatted_address":"Urbanización Las Meloneras, Avenida del Mediterraneo, s/n, 35100 Maspalomas - Gran Canaria, Las Palmas, España","geometry":{"location":{"lat":27.7409529,"lng":-15.6044992},"viewport":{"northeast":{"lat":27.74239577989272,"lng":-15.60307507010728},"southwest":{"lat":27.73969612010728,"lng":-15.60577472989272}}},"icon":"https://maps.gstatic.com/mapfiles/place_api/icons/lodging-71.png","id":"5f672df45e1bbcfb6cb4cd276576cb271c9391bc","name":"Hotel Riu Gran Canaria","opening_hours":{"open_now":true},"photos":[{"height":2592,"html_attributions":["<a href=\"https://maps.google.com/maps/contrib/105144731890696764289\">José Ramón López Paleo</a>"],"photo_reference":"CmRaAAAAuYIowWHwVzYFTQbcxMmsU0BCP0ANZwnStqvM6D8XYvxKioqSq2mLwAQtd18tvZhEXce-6OdmtnErxtRFY8hkTEfLKh9XiTKFwkmKlFrOSH4W77kWBvBWToqwJ-LTPZpGEhCw4J8oWBzsCI6jDx_nwBQkGhRA9_JsYTZNp_cbjDmJBbqGZmOOsw","width":4608}],"place_id":"ChIJnaS5wy99PwwRl4OOlNuz56o","plus_code":{"compound_code":"P9RW+96 Maspalomas","global_code":"7CV6P9RW+96"},"rating":4.6,"reference":"ChIJnaS5wy99PwwRl4OOlNuz56o","types":["spa","lodging","point_of_interest","establishment"],"user_ratings_total":3204}],"status":"OK"},{"html_attributions":[],"results":[{"business_status":"OPERATIONAL","formatted_address":"Avenida de Tirajana, s/n, 35100 Maspalomas - Gran Canaria, Las Palmas, España","geometry":{"location":{"lat":27.7468755,"lng":-15.5766894},"viewport":{"northeast":{"lat":27.74822532989272,"lng":-15.57533957010728},"southwest":{"lat":27.74552567010727,"lng":-15.57803922989272}}},"icon":"https://maps.gstatic.com/mapfiles/place_api/icons/lodging-71.png","id":"ffa1759dcc349164ba88105a9865b6ae0e34ba08","name":"Hotel Riu Palace Maspalomas","opening_hours":{"open_now":true},"photos":[{"height":719,"html_attributions":["<a href=\"https://maps.google.com/maps/contrib/108849352895448674395\">Hotel Riu Palace Maspalomas</a>"],"photo_reference":"CmRaAAAAOeXIUkgyHvTGgSSXpppSYm8FB68YHCGjlGNfqVpQjNCyZqS6ep7Zt8-45_SRY5opyK8iMJWibydFSsnOF8ZSwy0cij9Ovo25X5Kwx5sR8HrKq7HqqvjwZfcSL7Be6bM2EhBfPDaL1UoOMl2j7rRzNWTkGhSRQEauvKIgw9VbTsZKNOJEHJhhlA","width":1000}],"place_id":"ChIJPRDWYcNiPwwRBZK9rCrtgzs","plus_code":{"compound_code":"PCWF+Q8 Maspalomas","global_code":"7CV6PCWF+Q8"},"rating":4.5,"reference":"ChIJPRDWYcNiPwwRBZK9rCrtgzs","types":["spa","lodging","point_of_interest","establishment"],"user_ratings_total":2157}],"status":"OK"},{"html_attributions":[],"results":[{"business_status":"OPERATIONAL","formatted_address":"Calle Mar Mediterráneo, s/n, 35100 Maspalomas - Gran Canaria, Las Palmas, España","geometry":{"location":{"lat":27.7397403,"lng":-15.6026083},"viewport":{"northeast":{"lat":27.74123747989272,"lng":-15.60123042010728},"southwest":{"lat":27.73853782010728,"lng":-15.60393007989272}}},"icon":"https://maps.gstatic.com/mapfiles/place_api/icons/lodging-71.png","id":"b01d8189023c6161de83b60b0a6c26204ce6507a","name":"Hotel Riu Palace Meloneras","opening_hours":{"open_now":true},"photos":[{"height":750,"html_attributions":["<a href=\"https://maps.google.com/maps/contrib/117436143535892833510\">Hotel Riu Palace Meloneras</a>"],"photo_reference":"CmRaAAAAGvdEpgqrddPIjevE-rJ3OVMlY7THu9IEDU-KZexbIegGxBaPt2-_-fWN8sToi_qpZWZq47CUARu0S0MVXgaVzIzragOpOqvtWWFzg0jXRrtvOS7hBLzv0yHPOK-mfMPpEhBzNIRoILz4t8XcQ6iX2bcDGhSxFHm4OMQ_UJ-RQNa4F0fw0vj6oA","width":1000}],"place_id":"ChIJEQ2HVi59PwwRYKkGneS0SpE","plus_code":{"compound_code":"P9QW+VX Maspalomas","global_code":"7CV6P9QW+VX"},"rating":4.7,"reference":"ChIJEQ2HVi59PwwRYKkGneS0SpE","types":["spa","lodging","point_of_interest","establishment"],"user_ratings_total":1518}],"status":"OK"},{"html_attributions":[],"results":[{"business_status":"OPERATIONAL","formatted_address":"Plaza de las Palmeras, 2, 35100 San Bartolomé de Tirajana, Las Palmas, España","geometry":{"location":{"lat":27.736704,"lng":-15.5973484},"viewport":{"northeast":{"lat":27.73810957989272,"lng":-15.59571227010728},"southwest":{"lat":27.73540992010728,"lng":-15.59841192989273}}},"icon":"https://maps.gstatic.com/mapfiles/place_api/icons/lodging-71.png","id":"d1dd562fe74d3212b83abe0209d6c4230f7223f2","name":"Hotel Riu Palace Oasis","opening_hours":{"open_now":true},"photos":[{"height":1200,"html_attributions":["<a href=\"https://maps.google.com/maps/contrib/118088670726728554461\">Hotel Riu Palace Oasis</a>"],"photo_reference":"CmRaAAAAn7BsonofA3UC8uZHq3E-a-Cl0icfFdTXjFy6KEH29mQSHtP1DEqY9txyRs4MFdWCDjYlJManen7myDcpFRzzTMoQnsK6LMw9dYXgJpmPYsk4VnYBgSbPNXh1HEmvQAOXEhBi4qafoBcYHmwMRFgVkeClGhQlUaacxXZjxcHUr_3njlQnAczmnQ","width":2000}],"place_id":"ChIJPRDWYcNiPwwRL63C_09Wiow","plus_code":{"compound_code":"PCP3+M3 San Bartolomé de Tirajana","global_code":"7CV6PCP3+M3"},"rating":4.5,"reference":"ChIJPRDWYcNiPwwRL63C_09Wiow","types":["spa","lodging","point_of_interest","establishment"],"user_ratings_total":1088}],"status":"OK"},{"html_attributions":[],"results":[{"business_status":"OPERATIONAL","formatted_address":"Avenida Estados Unidos de América, 1, 35100 Playa del Inglés - Gran Canaria, Las Palmas, España","geometry":{"location":{"lat":27.756198,"lng":-15.571512},"viewport":{"northeast":{"lat":27.75760392989272,"lng":-15.57018857010728},"southwest":{"lat":27.75490427010727,"lng":-15.57288822989272}}},"icon":"https://maps.gstatic.com/mapfiles/place_api/icons/lodging-71.png","id":"75eaad11f803c83f539a2a50f1a8bf5e5fffe67d","name":"Hotel Riu Palace Palmeras","opening_hours":{"open_now":true},"photos":[{"height":760,"html_attributions":["<a href=\"https://maps.google.com/maps/contrib/114446808598358184624\">Hotel Riu Palmeras / Bung Riu Palmitos</a>"],"photo_reference":"CmRaAAAALBBc6Ru-jr8PyluzXFG-XcNKhCp8X9BUnATUtFaD2oJX_PdkfY1pdDLzEKRn-AypVAuZdHrkiZDhyxQbqtaF81iloD7ifJJ_t5iMnxtQ_c1-g2OMlvQSOjEk2Sg5SklZEhChVlvLYm7ZUuGqBA51KQ16GhRb4iq7Do-bTwuSrTayWPHP3y_EHQ","width":1000}],"place_id":"ChIJBx96F8BiPwwRFbCbdPjMMgE","plus_code":{"compound_code":"QC4H+F9 Maspalomas","global_code":"7CV6QC4H+F9"},"rating":4.4,"reference":"ChIJBx96F8BiPwwRFbCbdPjMMgE","types":["lodging","point_of_interest","establishment"],"user_ratings_total":785}],"status":"OK"},{"html_attributions":[],"results":[{"business_status":"OPERATIONAL","formatted_address":"Av. de Gran Canaria, 22, 35100 San Bartolomé de Tirajana, Las Palmas, España","geometry":{"location":{"lat":27.7644174,"lng":-15.572196},"viewport":{"northeast":{"lat":27.76509397989272,"lng":-15.57094787010728},"southwest":{"lat":27.76239432010727,"lng":-15.57364752989272}}},"icon":"https://maps.gstatic.com/mapfiles/place_api/icons/lodging-71.png","id":"640ee8cfe4b97c33bc618b2fa3da9b309f3e31d3","name":"Hotel Riu Papayas","opening_hours":{"open_now":true},"photos":[{"height":3741,"html_attributions":["<a href=\"https://maps.google.com/maps/contrib/111917374587652664673\">Hotel Riu Papayas</a>"],"photo_reference":"CmRZAAAAmLvt8fAXhVfbGB0FxlwIoC8yqq8-0pER-TTFp8YrcLcubw2ZvD3ajhZClOlmRFHwasDPPI7VspXrL5Bzih_6vI9_bCyLGEO4l-ijv7Oau0083QoM-7S5oTCOm1r0q3cEEhC00cB5Uc2-uvZ-GKgqRCsLGhTQtxNhaX-koD459dJWrNMKAsRfKg","width":5616}],"place_id":"ChIJM5mQVJRiPwwRqoNBNM5w39o","plus_code":{"compound_code":"QC7H+Q4 San Bartolomé de Tirajana","global_code":"7CV6QC7H+Q4"},"rating":4.5,"reference":"ChIJM5mQVJRiPwwRqoNBNM5w39o","types":["lodging","point_of_interest","establishment"],"user_ratings_total":1998}],"status":"OK"},{"html_attributions":[],"results":[{"business_status":"OPERATIONAL","formatted_address":"Urbanización Puerto Rico, Av. de la Cornisa, 23, 35130 Mogán, Las Palmas, España","geometry":{"location":{"lat":27.7882014,"lng":-15.7215884},"viewport":{"northeast":{"lat":27.78975462989272,"lng":-15.72030597010728},"southwest":{"lat":27.78705497010728,"lng":-15.72300562989272}}},"icon":"https://maps.gstatic.com/mapfiles/place_api/icons/lodging-71.png","id":"6f6c93dd5ca20ec9891272b270f39e0a2ca57ca7","name":"Hotel Riu Vistamar","opening_hours":{"open_now":true},"photos":[{"height":1364,"html_attributions":["<a href=\"https://maps.google.com/maps/contrib/112376807973486212043\">Clubhotel Riu Vistamar</a>"],"photo_reference":"CmRZAAAAV_W-s88su3DLW3eTvYmVeekM9SVHvCBE1sOrjeHzWBqkuilFdc0nCCY7yU735vdnNeOLdQeNpbSYTep3GKxE1RrMhR2l4xVjAjCs92zwREgSyBzXCZSpISCRMPYN-JCMEhDfFolVi7ao7VBwo0br4HJQGhSIhh1uYLhQnPmJUM7eMtPhDzl4HQ","width":2048}],"place_id":"ChIJG7fLSLiBQAwRrnREeSy5i5M","plus_code":{"compound_code":"Q7QH+79 Mogán","global_code":"7CV6Q7QH+79"},"rating":4.5,"reference":"ChIJG7fLSLiBQAwRrnREeSy5i5M","types":["lodging","point_of_interest","establishment"],"user_ratings_total":2281}],"status":"OK"},{"html_attributions":[],"results":[{"business_status":"OPERATIONAL","formatted_address":"Calle Suiza, 4, 35519 Tías, Las Palmas, España","geometry":{"location":{"lat":28.92666609999999,"lng":-13.6390753},"viewport":{"northeast":{"lat":28.92819737989272,"lng":-13.63796272010728},"southwest":{"lat":28.92549772010727,"lng":-13.64066237989272}}},"icon":"https://maps.gstatic.com/mapfiles/place_api/icons/lodging-71.png","id":"b48c2030dbaa0e1d1cfad2d404b9323edabd729e","name":"Hotel Riu Paraiso Lanzarote Resort","opening_hours":{"open_now":true},"photos":[{"height":3543,"html_attributions":["<a href=\"https://maps.google.com/maps/contrib/104188733989197103938\">ClubHotel RIU Paraiso Lanzarote Resort</a>"],"photo_reference":"CmRaAAAAUynj9dLbE7EGOFlI5Z5Z6uUyM0KyKvB1r2WkGUaASNjN0aU5xxpZ0NgM35fkmJi_NWJqq_Rewh2YxZtMe3wJbHt7xGhv4fcSJhT7TFqDqhWlu3mUI0_GCoYq8h2GfB4qEhACqtr8TjZJUOFY5FgnczgmGhRZ8LWci98TEVn2h98C0aNnHgppKA","width":4957}],"place_id":"ChIJ3025iOAlRgwRkwHciZ-FiNw","plus_code":{"compound_code":"W9G6+M9 Tías","global_code":"7CW8W9G6+M9"},"rating":4.4,"reference":"ChIJ3025iOAlRgwRkwHciZ-FiNw","types":["spa","lodging","point_of_interest","establishment"],"user_ratings_total":2431}],"status":"OK"},{"html_attributions":[],"results":[{"business_status":"OPERATIONAL","formatted_address":"C/ Gran Vía, 84, 28013 Madrid, España","geometry":{"location":{"lat":40.4237056,"lng":-3.7108057},"viewport":{"northeast":{"lat":40.42522967989272,"lng":-3.709799570107278},"southwest":{"lat":40.42253002010728,"lng":-3.712499229892722}}},"icon":"https://maps.gstatic.com/mapfiles/place_api/icons/lodging-71.png","id":"b3f254b47cddb7e2e699bca1b9c0c508caa27bec","name":"Hotel Riu Plaza España","opening_hours":{"open_now":true},"photos":[{"height":3499,"html_attributions":["<a href=\"https://maps.google.com/maps/contrib/113913311138245448313\">A Google User</a>"],"photo_reference":"CmRaAAAA2grwYxfMPE4-bFSOoN3pSziId6nuFjzVactgG5rQzlKJNXz6EGoPbTjYwxoq5CoT7CzOHk3K3qizEWaabSPz8CWVSscw2S7gcmRfLOnG-gVPgD9_T8XSwPSZrYXvbEvZEhDKLNWlZmrv52d2TcWUlQPYGhQSV7GZMbwlZhKpCSh6vpfeayDF4Q","width":3063}],"place_id":"ChIJRfe-12QoQg0RfF4gSjZRpl8","plus_code":{"compound_code":"C7FQ+FM Madrid","global_code":"8CGRC7FQ+FM"},"rating":4.4,"reference":"ChIJRfe-12QoQg0RfF4gSjZRpl8","types":["lodging","point_of_interest","establishment"],"user_ratings_total":1308}],"status":"OK"},{"html_attributions":[],"results":[{"business_status":"OPERATIONAL","formatted_address":"Palma, Mallorca, Islas Baleares Islas Baleares ES, Misión de San Diego, 4, 07610 Playa de, España","geometry":{"location":{"lat":39.5160134,"lng":2.7473342},"viewport":{"northeast":{"lat":39.51740442989272,"lng":2.748650129892723},"southwest":{"lat":39.51470477010728,"lng":2.745950470107278}}},"icon":"https://maps.gstatic.com/mapfiles/place_api/icons/lodging-71.png","id":"dd5998cc785345e34b67a93f5b9dd889b57f56b9","name":"Hotel Riu Bravo","opening_hours":{"open_now":true},"photos":[{"height":3837,"html_attributions":["<a href=\"https://maps.google.com/maps/contrib/105942805064217985669\">Hotel Riu Bravo</a>"],"photo_reference":"CmRaAAAAF9-UJ_Rc_9l1A1xGMsaRfRdf3JjgZE3Uhhz50vmBv71kXzqU-iitZmopfSzWuz-3dYzvbshkHq2Qg8RrkM3oRt7oaTIXupzqAA1wVMSoBqD5tMK8i-S2GVrD57WYztafEhA1IiLTu0kMAJspp0iVcgUsGhRIsG3lKPT_WvAEksc4Hu1eiFnHbg","width":5760}],"place_id":"ChIJmScGWl2WlxIRsLkbzaOs8UE","plus_code":{"compound_code":"GP8W+CW Playa de Palma, Palma","global_code":"8FF4GP8W+CW"},"rating":4.4,"reference":"ChIJmScGWl2WlxIRsLkbzaOs8UE","types":["lodging","point_of_interest","establishment"],"user_ratings_total":1348}],"status":"OK"},{"html_attributions":[],"results":[{"business_status":"OPERATIONAL","formatted_address":"Camí de les Meravelles, 8, 07610 Palma, Illes Balears, España","geometry":{"location":{"lat":39.5181295,"lng":2.7456617},"viewport":{"northeast":{"lat":39.51952902989272,"lng":2.746959829892722},"southwest":{"lat":39.51682937010728,"lng":2.744260170107277}}},"icon":"https://maps.gstatic.com/mapfiles/place_api/icons/lodging-71.png","id":"9dd963175379a6d6e494a445832c5f5a9c0ccec8","name":"Hotel Riu Concordia","opening_hours":{"open_now":true},"photos":[{"height":1080,"html_attributions":["<a href=\"https://maps.google.com/maps/contrib/115313258612172032655\">Samu</a>"],"photo_reference":"CmRaAAAA28ynObJJhdoNmMUlyxMU1Po42TMnHW5UUhsL6MJiJMpI_kP3V7_VWDpLztXOgPcX1il2ZXz4EGey0vhX8WF4YUTyioFEaqDmbRQ-sucWj46Sj_xRNpMFD53vZYJM2TR4EhAzExnKWc8LxhYr9Neoi_KDGhSa_z4I_P0hu71hcgI0B2wdXzTT9w","width":1920}],"place_id":"ChIJvQsrCGeWlxIRDWVPHgs12Bs","plus_code":{"compound_code":"GP9W+77 Palma","global_code":"8FF4GP9W+77"},"rating":3.8,"reference":"ChIJvQsrCGeWlxIRDWVPHgs12Bs","types":["lodging","point_of_interest","establishment"],"user_ratings_total":745}],"status":"OK"},{"html_attributions":[],"results":[{"business_status":"OPERATIONAL","formatted_address":"Camí de les Meravelles, 7, 07610 Palma, Illes Balears, España","geometry":{"location":{"lat":39.5192734,"lng":2.7465663},"viewport":{"northeast":{"lat":39.52055022989272,"lng":2.747993129892722},"southwest":{"lat":39.51785057010728,"lng":2.745293470107278}}},"icon":"https://maps.gstatic.com/mapfiles/place_api/icons/lodging-71.png","id":"11bc494dc8bafd285b803262ef1d89f703f09bbc","name":"Hotel Riu Festival","opening_hours":{"open_now":true},"photos":[{"height":2398,"html_attributions":["<a href=\"https://maps.google.com/maps/contrib/104221947066783174484\">Hotel Riu Festival</a>"],"photo_reference":"CmRaAAAAmTx03QQxepjJ0gb0mu81WHCQAhTjnpOpo2Neg9wmD4xduBEnwyf-w4oNn3xphUDAS_mvgnPeZQ_O-8omaKiuCc1sp47MKgFxmTPLNMrgM41rSmYXNkXHrFnhHIb2BAb4EhASIHKfzsuII68XFf5vz1ZGGhQUQpgb72VFQ9ZPJwUjlJPAnxSrqg","width":3600}],"place_id":"ChIJBcrxQlaSlxIR5flk5x-xPK4","plus_code":{"compound_code":"GP9W+PJ Palma","global_code":"8FF4GP9W+PJ"},"rating":4.5,"reference":"ChIJBcrxQlaSlxIR5flk5x-xPK4","types":["lodging","point_of_interest","establishment"],"user_ratings_total":602}],"status":"OK"},{"html_attributions":[],"results":[{"business_status":"OPERATIONAL","formatted_address":"Carrer del Pare Bartomeu Salvà, 15, 07610 Palma, Illes Balears, España","geometry":{"location":{"lat":39.51873519999999,"lng":2.7483829},"viewport":{"northeast":{"lat":39.51992172989272,"lng":2.749882679892723},"southwest":{"lat":39.51722207010727,"lng":2.747183020107278}}},"icon":"https://maps.gstatic.com/mapfiles/place_api/icons/lodging-71.png","id":"2d04e324a4808a9beac692e053a5c2e42689288b","name":"Hotel Riu Playa Park","opening_hours":{"open_now":true},"photos":[{"height":2268,"html_attributions":["<a href=\"https://maps.google.com/maps/contrib/115635477335475078576\">Michael Huick</a>"],"photo_reference":"CmRaAAAA5XGhHyzySO31hspndseXtrD6KGSMKbuy5y6vk_Ta1_sy3auatRHILBIzO25DQRu1JdXFrSVXwHfFq9r68GpIKyO45gL27sOJtDTULmF-aXb7TBck47PE93HFnC-nt_NMEhByxrR83Ys-lU-diKJYvI1TGhRBbAGQV7MkjIZ-Tvpt8Y3_mhF8bw","width":4032}],"place_id":"ChIJfUzPYWiWlxIRwwK2VxsBzws","plus_code":{"compound_code":"GP9X+F9 Palma","global_code":"8FF4GP9X+F9"},"rating":4.1,"reference":"ChIJfUzPYWiWlxIRwwK2VxsBzws","types":["lodging","point_of_interest","establishment"],"user_ratings_total":666}],"status":"OK"},{"html_attributions":[],"results":[{"business_status":"OPERATIONAL","formatted_address":"Carrer del Llaüt, 24, 07610 Palma, Illes Balears, España","geometry":{"location":{"lat":39.5169685,"lng":2.7453776},"viewport":{"northeast":{"lat":39.51836737989272,"lng":2.746809879892722},"southwest":{"lat":39.51566772010728,"lng":2.744110220107277}}},"icon":"https://maps.gstatic.com/mapfiles/place_api/icons/lodging-71.png","id":"bf6904db59c60092ef7b99cd0ff3662432e37690","name":"Hotel Riu San Francisco","opening_hours":{"open_now":true},"photos":[{"height":673,"html_attributions":["<a href=\"https://maps.google.com/maps/contrib/104468038200504200689\">Hotel Riu San Francisco</a>"],"photo_reference":"CmRaAAAAh5tnQwHbjDddUgFE3ZHEwU9qLhjILCMm_zbhBtK2rDbe6gXdjnj7U2B6ARxtKGUn0w4pv2lWFdgK5b15ih6nVLYjIb6QzAY1Sz774PScPkpeSNku3WxfLub5Hmvxygv0EhCobjtZCoEM22ScO-UjT0_eGhQDAbeBG0vgRHC33KDTF5Fu61xdvA","width":1000}],"place_id":"ChIJST0udmeWlxIR4WPbdCFc2ls","plus_code":{"compound_code":"GP8W+Q5 Palma","global_code":"8FF4GP8W+Q5"},"rating":4.4,"reference":"ChIJST0udmeWlxIR4WPbdCFc2ls","types":["lodging","point_of_interest","establishment"],"user_ratings_total":619}],"status":"OK"},{"html_attributions":[],"results":[{"business_status":"OPERATIONAL","formatted_address":"Playa de la Torrecilla, s/n, 29780 Nerja, Málaga, España","geometry":{"location":{"lat":36.742838,"lng":-3.8827776},"viewport":{"northeast":{"lat":36.74427202989272,"lng":-3.881477420107277},"southwest":{"lat":36.74157237010727,"lng":-3.884177079892721}}},"icon":"https://maps.gstatic.com/mapfiles/place_api/icons/lodging-71.png","id":"24ff6122ca363a138d9734a24b16cc5f031f1f95","name":"Hotel Riu Monica","opening_hours":{"open_now":true},"photos":[{"height":666,"html_attributions":["<a href=\"https://maps.google.com/maps/contrib/102275276355335221608\">Hotel Riu Monica</a>"],"photo_reference":"CmRaAAAA3GoGJUqd_dcuPImkTx6fCrhzA2dQRfZwj3wa30TGRKfde9Iij_XgMiaeqCMSHLOJQPARs64A7ZSEmY3siRgE1RtFIjRzh0ajwaRQ2oDYRoHRovdM2fYc-qUCRCFO1VQ4EhBz0P46OVAH1NmrRsrANlxwGhQ9An_0rbu7RrZugy_hyscTAGneJA","width":1000}],"place_id":"ChIJ61Ik5hQlcg0REApi2bgoE00","plus_code":{"compound_code":"P4V8+4V Nerja","global_code":"8C8RP4V8+4V"},"rating":4.5,"reference":"ChIJ61Ik5hQlcg0REApi2bgoE00","types":["lodging","point_of_interest","establishment"],"user_ratings_total":1048}],"status":"OK"},{"html_attributions":[],"results":[{"business_status":"OPERATIONAL","formatted_address":"Paseo Marítimo, 165, 29620 Torremolinos, Málaga, España","geometry":{"location":{"lat":36.6353823,"lng":-4.4869521},"viewport":{"northeast":{"lat":36.63661482989272,"lng":-4.485698170107279},"southwest":{"lat":36.63391517010727,"lng":-4.488397829892723}}},"icon":"https://maps.gstatic.com/mapfiles/place_api/icons/lodging-71.png","id":"d4b749a547d57f52bdcb0f555f50338e7118fcb3","name":"Hotel Riu Costa del Sol","opening_hours":{"open_now":true},"photos":[{"height":666,"html_attributions":["<a href=\"https://maps.google.com/maps/contrib/102186951254731678319\">Hotel Riu Belplaya</a>"],"photo_reference":"CmRaAAAApqc8s4nKMYGTc0D8hgosrIcVmK8F7yfg1Qe8ahLUUW4F0Mt7ydjcCBPpBThw1TnY_s0s41wXUO9nf9iFLux79iMWwK7d32OzuX8RTqAQ0SDX7bbzwixWwhgNIWtA8ZEMEhDD05-gXPEuKhTw8ZMPqMWMGhRMreOc4N0BMpk_bRr0WF__D1Q-7g","width":1000}],"place_id":"ChIJlQkPtt37cg0REA1mb54ff_I","plus_code":{"compound_code":"JGP7+56 Torremolinos","global_code":"8C8QJGP7+56"},"rating":4.4,"reference":"ChIJlQkPtt37cg0REA1mb54ff_I","types":["lodging","point_of_interest","establishment"],"user_ratings_total":2562}],"status":"OK"},{"html_attributions":[],"results":[{"business_status":"OPERATIONAL","formatted_address":"Calle Salvador Allende, 39, 29620 Torremolinos, Málaga, España","geometry":{"location":{"lat":36.6021217,"lng":-4.5099741},"viewport":{"northeast":{"lat":36.60358452989272,"lng":-4.508816670107279},"southwest":{"lat":36.60088487010727,"lng":-4.511516329892723}}},"icon":"https://maps.gstatic.com/mapfiles/place_api/icons/lodging-71.png","id":"991abe462136a614130909dc78f9e1759eff638f","name":"Hotel Riu Nautilus","opening_hours":{"open_now":true},"photos":[{"height":1024,"html_attributions":["<a href=\"https://maps.google.com/maps/contrib/117471898724741894823\">Paulo Baroca</a>"],"photo_reference":"CmRaAAAATWmXgcYeQZocDVViqPJ_KGqHLqxOOdzjpbVT-r9X5-n-C6EmitTqXId0Y5yl1KFT-dEyrC43g29_wyHUmpYWd68QQAy8mpj63XyC1YGE_3OJAdmm_CTSV4DETxG5LAMwEhAGwkrGVZJlVAqsuYLFntDGGhSp7wiSYfrjy4yA961VSf8xid9Rwg","width":3600}],"place_id":"ChIJudUeZnD8cg0RIY0DFx-b8Vk","plus_code":{"compound_code":"JF2R+R2 Torremolinos","global_code":"8C8QJF2R+R2"},"rating":4.4,"reference":"ChIJudUeZnD8cg0RIY0DFx-b8Vk","types":["spa","lodging","point_of_interest","establishment"],"user_ratings_total":996}],"status":"OK"},{"html_attributions":[],"results":[{"business_status":"OPERATIONAL","formatted_address":"Playa del Duque, 38670 Costa Adeje, Santa Cruz de Tenerife, España","geometry":{"location":{"lat":28.095269,"lng":-16.7459743},"viewport":{"northeast":{"lat":28.09679512989272,"lng":-16.74454642010728},"southwest":{"lat":28.09409547010728,"lng":-16.74724607989272}}},"icon":"https://maps.gstatic.com/mapfiles/place_api/icons/lodging-71.png","id":"c93da6d7c717df0faad5afcfc3b78ca588dfc8c8","name":"Hotel Riu Arecas","opening_hours":{"open_now":true},"photos":[{"height":2988,"html_attributions":["<a href=\"https://maps.google.com/maps/contrib/106211151329308954886\">Eugen Marius Simion</a>"],"photo_reference":"CmRaAAAADgQ1d75eFlStSszumIY97F8lmIULrKxGt3ROZ7O4TO_Tui2Y7OJPgJozOwhMUI6el5rDW1cftIff44JcqVoJtMRpdC75Nq7bRZNPcJVjU2wSF3--wWMulWNiFkLqMs8hEhACYDEFZk7LJTR3_5DGU2LwGhRN_uKExJzLJPHs5TRWljJuP6DDdg","width":5312}],"place_id":"ChIJwU_5SrWQagwRaGZlvp-o8lQ","plus_code":{"compound_code":"37W3+4J Adeje","global_code":"7CW537W3+4J"},"rating":4.5,"reference":"ChIJwU_5SrWQagwRaGZlvp-o8lQ","types":["spa","lodging","point_of_interest","establishment"],"user_ratings_total":1419}],"status":"OK"},{"html_attributions":[],"results":[{"business_status":"OPERATIONAL","formatted_address":"Calle Horno Urbanizacion, Av. Playa Paraíso, 35, 38678 Adeje, Santa Cruz de Tenerife, España","geometry":{"location":{"lat":28.1233414,"lng":-16.7782584},"viewport":{"northeast":{"lat":28.12536207989272,"lng":-16.77651512010728},"southwest":{"lat":28.12266242010728,"lng":-16.77921477989273}}},"icon":"https://maps.gstatic.com/mapfiles/place_api/icons/lodging-71.png","id":"14870d49b44299f7c93c3f1364a5b1ce08ccbe71","name":"Hotel Riu Buenavista","opening_hours":{"open_now":true},"photos":[{"height":3219,"html_attributions":["<a href=\"https://maps.google.com/maps/contrib/111106805537995226376\">ClubHotel Riu Buena Vista</a>"],"photo_reference":"CmRaAAAAhw_sJq0az1ssSDvTVlHvz5iNlvXyWdUAB-62DiReJB2_bOp1S5SKd2O8UNpi7W0QPdXbtkj32jJIvRjhvXqyGmj5aYujTbDTcb7nUIfq6WbSvnH_38wd1t2AOx0BhNnDEhDSlOS2knAARFroaKjtNFIzGhSaiVaE-D5ydOz2RL0Dd9YLCBZtxw","width":4640}],"place_id":"ChIJsx2RbhuRagwRWcM59G7unbs","plus_code":{"compound_code":"46FC+8M Adeje","global_code":"7CW546FC+8M"},"rating":4.2,"reference":"ChIJsx2RbhuRagwRWcM59G7unbs","types":["lodging","point_of_interest","establishment"],"user_ratings_total":3454}],"status":"OK"},{"html_attributions":[],"results":[{"business_status":"OPERATIONAL","formatted_address":"Calle Dr. Celestino Gonzàlez Padrón, 3, 38400 Puerto de la Cruz, Santa Cruz de Tenerife, España","geometry":{"location":{"lat":28.4127252,"lng":-16.5316617},"viewport":{"northeast":{"lat":28.41397142989272,"lng":-16.53032022010728},"southwest":{"lat":28.41127177010728,"lng":-16.53301987989272}}},"icon":"https://maps.gstatic.com/mapfiles/place_api/icons/lodging-71.png","id":"fc374d1be7a315a0d56cb6267b579ac7f50afd34","name":"Hotel Riu Garoe","opening_hours":{"open_now":true},"photos":[{"height":3456,"html_attributions":["<a href=\"https://maps.google.com/maps/contrib/100269003542635729554\">Hotel Riu Garoe</a>"],"photo_reference":"CmRaAAAA31BmPDxZm7arMzs-IwqUsvnYeklmIVvR8crm687VhNZPlCxuSbC7wg6KjcHsXKzqkRsFlhKnAsBbR-fjOrst6zJ6Kgw620WhaMTZTzDmykuIFuyBG3aIQEM7XnXRXU-MEhA5Mge6CS1AeuHaHLxkItNOGhRTt4b0cSWwLRoxkUU0hGgo9NDUxg","width":5184}],"place_id":"ChIJz0yr3l7VQQwR1JLgcHMkYYw","plus_code":{"compound_code":"CF79+38 Puerto de la Cruz","global_code":"7CW5CF79+38"},"rating":4.5,"reference":"ChIJz0yr3l7VQQwR1JLgcHMkYYw","types":["lodging","point_of_interest","establishment"],"user_ratings_total":880}],"status":"OK"},{"html_attributions":[],"results":[{"business_status":"OPERATIONAL","formatted_address":"Urbanización La Herradura, 38670, 38670 Adeje, Santa Cruz de Tenerife, España","geometry":{"location":{"lat":28.0945606,"lng":-16.7475016},"viewport":{"northeast":{"lat":28.09600507989272,"lng":-16.74613707010728},"southwest":{"lat":28.09330542010728,"lng":-16.74883672989272}}},"icon":"https://maps.gstatic.com/mapfiles/place_api/icons/lodging-71.png","id":"592b26425f1c5bf4b6addf477e69c3a5e6fb748b","name":"Hotel Riu Palace Tenerife","opening_hours":{"open_now":true},"photos":[{"height":2592,"html_attributions":["<a href=\"https://maps.google.com/maps/contrib/100548566788174232891\">Walter Pison</a>"],"photo_reference":"CmRaAAAAZ2G1Cs1-B97lKXcLu0TvGyNc3wwVryyG6XfsBJyk8SvDKi6tSsgMHn1CZ-wdTurCFyBUUWQM6RNbNdXTdmYqoHDRdOc64lbmsZIKbaeYmqXkuoVRp_Fgl--_DKT160vtEhCR_PXa120gzkqM121jOdlZGhRkzhe6zUIzhol3lbL0eDhtIpdqtw","width":4608}],"place_id":"ChIJPcZKVDWXagwRL9-UDVnL7yA","plus_code":{"compound_code":"37V2+RX Adeje","global_code":"7CW537V2+RX"},"rating":4.6,"reference":"ChIJPcZKVDWXagwRL9-UDVnL7yA","types":["spa","lodging","point_of_interest","establishment"],"user_ratings_total":1193}],"status":"OK"}]